City_ID,City,Lat,Lng,Max Temp,Humidity,Cloudiness,Wind Speed
0,Coihaique,-45.5752,-72.0662,68.0,42,0,8.05
1,Kurchum,48.5722,83.6542,-20.34,83,0,2.93
2,Kaitangata,-46.2817,169.8464,66.0,73,92,4.0
3,Barrow,71.2906,-156.7887,-11.2,77,1,13.8
4,Punta Arenas,-53.15,-70.9167,55.4,71,0,12.66
5,Port Moresby,-9.4431,147.1797,82.4,83,75,17.27
6,Sainte-Luce-Sur-Loire,47.2538,-1.4843,44.6,81,0,10.36
7,Qaanaaq,77.484,-69.3632,7.38,75,79,3.67
8,Eyl,7.9803,49.8164,72.16,76,3,15.88
9,Los Llanos De Aridane,28.6585,-17.9182,64.4,55,75,16.11
10,Rikitea,-23.1203,-134.9692,77.9,74,71,11.03
11,Kang,-23.6752,22.7876,78.62,45,54,5.55
12,Souillac,-20.5167,57.5167,77.0,94,40,1.14
13,Pleshanovo,52.8333,53.4833,15.13,93,100,15.1
14,Saint Anthony,45.0205,-93.218,35.6,93,90,6.91
15,Sola,-13.8833,167.55,83.23,76,64,7.72
16,Khash,28.2211,61.2158,39.25,43,0,1.54
17,East London,-33.0153,27.9116,75.25,90,99,10.47
18,Hilo,19.7297,-155.09,84.2,51,40,9.22
19,Jurm,36.8648,70.8342,32.83,50,0,6.64
20,Atuona,-9.8,-139.0333,77.43,77,18,13.18
21,Umba,66.6871,34.3429,-0.4,93,100,2.59
22,Pochutla,15.7432,-96.4661,82.4,57,90,8.05
23,Mataura,-46.1927,168.8643,73.0,64,25,3.0
24,Rio Grande,-32.035,-52.0986,72.0,71,1,5.99
25,Ukiah,39.1502,-123.2078,69.01,45,1,4.68
26,Bluff,-46.6,168.3333,73.0,64,15,3.0
27,Faya,18.3851,42.4509,48.2,87,0,3.33
28,Tasiilaq,65.6145,-37.6368,37.4,75,75,12.66
29,Beringovskiy,63.05,179.3167,-16.06,87,28,8.88
30,Kidal,18.4411,1.4078,68.83,21,60,11.25
31,Ponta Do Sol,32.6667,-17.1,53.01,55,34,5.99
32,Vaini,-21.2,-175.2,84.2,84,20,10.36
33,Khatanga,71.9667,102.5,-51.34,76,52,2.24
34,Mokhsogollokh,61.4681,128.9203,-44.97,79,62,2.89
35,Raga,8.4596,25.678,64.8,26,93,3.83
36,Inverell,-29.7833,151.1167,84.99,62,3,5.01
37,Camacha,33.0833,-16.3333,55.4,67,40,9.22
38,Rivne,50.6231,26.2274,21.99,98,100,7.74
39,Lodja,-3.4833,23.4333,69.57,95,100,0.22
40,Kavieng,-2.5744,150.7967,84.36,70,100,5.77
41,Tuktoyaktuk,69.4541,-133.0374,-7.6,77,90,10.36
42,Roma,43.2128,-75.4557,35.6,75,90,1.03
43,Bengkulu,-3.8004,102.2655,76.78,81,94,3.96
44,Mungwi,-10.1732,31.3694,62.56,96,100,4.05
45,Cabo San Lucas,22.8909,-109.9124,75.2,27,20,4.61
46,Batagay,67.6333,134.6333,-38.67,76,100,1.19
47,Mar Del Plata,-38.0023,-57.5575,69.01,73,0,14.97
48,Port Alfred,-33.5906,26.891,74.3,89,99,15.86
49,Miranda De Ebro,42.6865,-2.947,43.0,93,75,6.91
50,San Cristobal,7.7669,-72.225,82.4,65,40,6.91
51,Hermanus,-34.4187,19.2345,64.0,85,0,11.99
52,Busselton,-33.65,115.3333,63.0,70,30,5.01
53,Chokurdakh,70.6333,147.9167,-15.95,89,88,8.66
54,North Platte,41.1239,-100.7654,39.2,38,75,33.38
55,Dilijan,40.741,44.8636,36.1,80,42,5.08
56,The Pas,53.8251,-101.2541,28.4,93,90,18.41
57,Bredasdorp,-34.5322,20.0403,68.0,94,73,2.3
58,Vrangel,42.7297,133.0839,19.47,85,100,13.06
59,Geraldton,-28.7667,114.6,86.0,28,0,17.27
60,Severo-Kurilsk,50.6789,156.125,25.54,93,100,20.18
61,Denpasar,-8.65,115.2167,78.8,89,75,5.75
62,Norman Wells,65.282,-126.8329,-0.4,85,40,4.61
63,Palmer,42.1584,-72.3287,34.0,100,90,2.15
64,Maicao,11.3832,-72.2432,77.05,71,93,9.01
65,Kichera,55.9375,110.0997,-4.07,85,100,4.12
66,Vasilyevskiy Mokh,57.0132,35.919,-7.46,91,100,5.28
67,Dikson,73.5069,80.5464,-29.04,80,2,5.53
68,Yellowknife,62.456,-114.3525,6.8,85,75,5.75
69,New Norfolk,-42.7826,147.0587,55.0,74,36,2.24
70,Ushuaia,-54.8,-68.3,53.6,58,20,10.36
71,Cape Town,-33.9258,18.4232,69.01,82,75,12.66
72,Tiksi,71.6872,128.8694,-29.42,84,100,3.36
73,Alexandria,31.2156,29.9553,59.0,72,40,13.8
74,San Carlos,9.6612,-68.5827,77.07,65,65,2.55
75,Alice Springs,-23.7,133.8833,87.8,25,0,17.27
76,Lavrentiya,65.5833,-171.0,4.6,92,98,6.33
77,Gladstone,-23.85,151.25,80.6,47,0,10.36
78,Kruisfontein,-34.0033,24.7314,72.0,90,69,1.01
79,Hobart,-42.8794,147.3294,59.0,55,75,5.75
80,Yar-Sale,66.8333,70.8333,-7.11,87,83,7.47
81,Jaynagar-Majilpur,22.1758,88.4178,57.2,88,4,4.61
82,Pevek,69.7008,170.3133,-18.54,89,76,2.8
83,Kapaa,22.0752,-159.319,79.0,73,20,8.05
84,Natal,-5.795,-35.2094,80.6,74,20,10.36
85,Saint-Philippe,-21.3585,55.7679,78.8,78,40,8.34
86,Sarangani,5.4033,125.4636,82.94,72,22,3.04
87,Meulaboh,4.1363,96.1285,75.61,82,99,3.69
88,Castro,-24.7911,-50.0119,64.02,90,53,9.93
89,Jamestown,42.097,-79.2353,34.0,93,1,6.91
90,Nordenham,53.5,8.4833,33.01,93,100,5.75
91,Torbay,47.6666,-52.7314,33.01,100,90,2.3
92,Port Lincoln,-34.7333,135.8667,61.65,56,38,19.82
93,Chuy,-33.6971,-53.4616,65.68,69,0,11.27
94,Choma,-16.8065,26.9531,65.3,98,100,5.26
95,Saskylakh,71.9167,114.0833,-46.77,76,47,1.92
96,Biak,-0.9131,122.8766,80.58,77,100,2.17
97,Abu Samrah,35.3029,37.1841,48.74,76,18,19.77
98,Pangody,65.85,74.4859,-8.66,89,100,8.55
99,Olinda,-8.0089,-34.8553,80.6,65,75,9.22
100,Peniche,39.3558,-9.3811,53.01,80,94,10.0
101,Esperance,-33.8667,121.9,59.0,82,40,12.66
102,Flic En Flac,-20.2742,57.3631,77.0,94,40,1.14
103,Georgetown,5.4112,100.3354,77.0,88,20,2.3
104,Herne Bay,51.373,1.1286,39.0,81,98,7.0
105,Beloha,-25.1667,45.05,74.79,92,16,8.05
106,Saldanha,-33.0117,17.9442,64.4,94,36,11.5
107,Kunigal,13.0222,77.0267,65.43,87,4,6.6
108,Suntar,62.1444,117.6319,-7.55,90,100,4.97
109,Albany,42.6001,-73.9662,36.0,72,100,0.49
110,Sibu,2.3,111.8167,75.2,100,40,1.92
111,Naryan-Mar,67.6713,53.087,-17.09,83,3,7.67
112,Touros,-5.1989,-35.4608,80.6,74,20,11.5
113,Port Hedland,-20.3167,118.5667,87.8,89,40,8.05
114,Galesong,-5.3166,119.3661,77.0,100,40,2.3
115,Victoria,22.2855,114.1577,60.01,61,0,8.03
116,Acajutla,13.5928,-89.8275,84.2,42,20,3.44
117,Gwadar,25.1216,62.3254,64.2,33,0,4.45
118,Rajgarh,28.6333,75.3833,53.89,39,76,5.32
119,Banda Aceh,5.5577,95.3222,76.82,84,93,10.16
120,Ribeira Grande,38.5167,-28.7,62.6,94,75,19.57
121,Antofagasta,-23.65,-70.4,64.4,72,75,13.8
122,Port Keats,-14.25,129.55,85.3,68,94,4.25
123,Mokshan,53.4365,44.6132,18.0,60,100,6.04
124,Kirkenaer,60.4564,12.0582,12.2,85,0,4.61
125,Saint George,37.1041,-113.5841,62.01,23,1,4.61
126,Ambatofinandrahana,-20.55,46.8,64.76,92,99,1.23
127,George,-33.963,22.4617,66.2,100,75,10.36
128,Sao Miguel Do Araguaia,-13.275,-50.1628,75.63,87,100,5.06
129,Salalah,17.0151,54.0924,75.2,13,0,5.75
130,Dafeng,23.4517,108.5881,54.86,42,78,0.72
131,Verkhnyaya Inta,65.9811,60.3094,-13.22,85,100,1.97
132,Hoi An,15.8794,108.335,57.2,100,20,1.14
133,Fortuna,40.5982,-124.1573,59.0,100,20,10.36
134,Maltahohe,-24.8333,16.9833,66.74,78,98,9.55
135,Galveston,29.3669,-94.9669,66.2,63,1,9.22
136,Pangai,-19.8,-174.35,86.0,79,40,5.75
137,Vaitape,-16.5167,-151.75,81.73,75,11,15.55
138,Lebu,-37.6167,-73.65,57.07,76,54,6.93
139,Rawson,-43.3002,-65.1023,71.11,58,94,24.76
140,Ancud,-41.8697,-73.8203,51.8,93,90,9.22
141,Arraial Do Cabo,-22.9661,-42.0278,77.0,83,0,14.97
142,Astaneh-Ye Ashrafiyeh,37.2596,49.9444,57.36,36,76,7.54
143,Hithadhoo,-0.6,73.0833,81.55,78,98,16.87
144,Punta Alta,-38.8759,-62.0736,80.2,35,25,18.14
145,Russell,32.3502,-85.1999,55.4,44,1,9.22
146,Mahebourg,-20.4081,57.7,77.0,94,40,1.14
147,Umea,63.8284,20.2597,3.2,85,90,5.75
148,Dunda,-8.1167,34.25,65.77,93,85,2.15
149,Avarua,-21.2078,-159.775,86.0,66,20,16.11
150,Gazi,35.3253,25.0669,46.99,66,20,10.36
151,Kozhva,65.1073,57.0459,-11.2,87,100,4.05
152,Praia Da Vitoria,38.7333,-27.0667,62.6,88,75,26.4
153,Nikolskoye,59.7035,30.7861,8.01,84,75,4.47
154,Urucara,-2.5364,-57.76,76.95,90,93,2.04
155,Olafsvik,64.8945,-23.7142,40.37,72,79,23.04
156,Vao,-22.6667,167.4833,76.86,92,100,11.14
157,Nagutskoye,44.4415,42.8762,35.6,100,90,15.66
158,Haines Junction,60.7522,-137.5108,14.0,92,100,1.14
159,Loukhi,66.0764,33.0381,-6.09,92,26,3.6
160,Khaga,25.7833,81.1167,45.25,61,7,2.24
161,Esna,25.2934,32.554,53.6,66,0,8.52
162,Kodiak,57.79,-152.4072,39.2,93,90,23.02
163,Kisangani,0.5167,25.2,70.05,93,91,2.8
164,Lodwar,3.1191,35.5973,81.12,40,1,6.17
165,Port Elizabeth,-33.918,25.5701,68.0,100,90,8.05
166,Nizhnyaya Omka,55.4338,74.9426,-18.33,86,0,6.17
167,Sarakhs,36.5449,61.1577,53.04,36,0,16.26
168,Lazaro Cardenas,17.9583,-102.2,80.15,67,100,7.36
169,Taoudenni,22.6783,-3.9836,56.23,35,32,12.08
170,Kandrian,-6.2167,149.55,86.13,70,100,10.56
171,Wanning,18.8003,110.3967,60.71,83,33,5.39
172,Fontem,5.4685,9.8818,66.31,65,1,1.54
173,Vanderhoof,54.0166,-124.0198,27.48,92,100,9.44
174,Broken Hill,-31.95,141.4333,62.6,45,9,21.85
175,Cascais,38.6979,-9.4215,54.0,93,94,15.01
176,Chiredzi,-21.05,31.6667,71.17,89,99,4.5
177,Puerto Ayora,-0.7393,-90.3518,82.4,65,75,5.75
178,Anadyr,64.75,177.4833,-9.4,77,94,6.71
179,Butaritari,3.0707,172.7902,81.36,76,47,20.49
180,Tazmalt,36.3868,4.3989,43.54,80,47,1.95
181,Monticello,45.3055,-93.7941,34.0,93,90,9.26
182,Hofn,64.2539,-15.2082,37.38,77,0,4.7
183,Richards Bay,-28.783,32.0377,75.4,82,82,10.2
184,Santa Fe,-31.6333,-60.7,77.16,47,7,7.07
185,Urumqi,43.801,87.6005,1.4,85,40,2.89
186,Naraini,25.1833,80.4833,46.94,53,0,2.01
187,Shelburne,44.0787,-80.2041,35.01,81,98,7.78
188,Natitingou,10.3042,1.3796,72.16,19,3,7.34
189,Jining,35.405,116.5814,39.99,1,100,12.28
190,Ishigaki,24.3448,124.1572,64.4,77,20,5.75
191,Leningradskiy,69.3833,178.4167,-3.62,91,100,8.99
192,Upernavik,72.7868,-56.1549,18.59,96,100,4.59
193,Chalmette,29.9427,-89.9634,66.2,48,1,10.36
194,Kidodi,-7.6036,37.0044,71.71,91,54,3.53
195,Kahului,20.8947,-156.47,86.0,48,20,17.27
196,Tarancon,40.0085,-3.0073,33.01,93,0,2.3
197,Pisco,-13.7,-76.2167,71.6,78,0,21.85
198,West Wendover,40.7391,-114.0733,44.6,31,1,5.75
199,Scarborough,54.2797,-0.4044,34.0,93,99,5.53
200,Heze,35.2431,115.4411,34.72,77,100,7.14
201,San Carlos De Bariloche,-41.1456,-71.3082,68.0,39,0,23.02
202,Naze,28.3667,129.4833,64.4,63,20,13.8
203,Mugla,37.2303,28.3557,41.0,93,20,4.14
204,Half Moon Bay,37.4636,-122.4286,68.0,68,1,8.05
205,Entebbe,0.0644,32.4469,73.9,75,99,6.53
206,Pacific Grove,36.6177,-121.9166,64.4,63,1,6.91
207,Samarai,-10.6167,150.6667,81.34,83,100,12.1
208,Carnarvon,-24.8667,113.6333,78.8,94,0,13.8
209,Hollins,37.3413,-79.9431,48.2,34,1,1.45
210,Luena,-11.7833,19.9167,59.83,97,98,4.14
211,Bereda,43.2686,-7.5406,41.0,100,52,0.47
212,Sitka,57.0531,-135.33,42.8,70,90,26.46
213,Cao Bang,22.6667,106.25,49.96,77,53,0.02
214,San,13.3034,-4.8956,72.19,18,0,9.06
215,Lekoni,-1.5843,14.2591,72.63,79,100,2.84
216,Maragogi,-9.0122,-35.2225,78.4,78,18,10.45
217,Opopeo,19.4,-101.6,63.0,53,100,0.65
218,Jizan,17.3333,42.6667,73.4,83,0,4.61
219,Dali,25.7,100.1833,37.72,79,95,0.31
220,Fort-Shevchenko,44.5086,50.263,38.3,88,83,8.34
221,Farafangana,-22.8167,47.8333,77.36,92,4,2.48
222,Mastic Beach,40.7668,-72.8521,39.0,87,40,4.79
223,Yoichi,43.2039,140.7703,24.8,63,75,2.3
224,Dakar,14.6937,-17.4441,66.2,77,0,9.22
225,Ilulissat,69.2167,-51.1,19.4,86,90,5.75
226,Santa Maria,-29.6842,-53.8069,75.2,64,0,11.5
227,Westport,41.1415,-73.3579,41.0,81,40,3.49
228,Hobyo,5.3505,48.5268,75.78,79,20,18.54
229,Tual,-5.6667,132.75,84.74,75,100,12.59
230,Faanui,-16.4833,-151.75,81.73,75,12,15.57
231,Lorengau,-2.0226,147.2712,85.77,64,97,8.79
232,Provideniya,64.3833,-173.3,10.4,79,90,6.71
233,Morondava,-20.2833,44.2833,82.51,78,100,2.48
234,Usinsk,65.9939,57.5281,-16.15,86,100,5.57
235,Gezing,47.9178,13.1299,24.01,100,46,5.75
236,Malanje,-9.5402,16.341,61.3,95,100,7.65
237,Pontivy,48.0,-3.0,46.4,76,0,11.5
238,Werota,11.9167,37.7,60.33,41,9,3.36
239,Laguna,38.421,-121.4238,61.0,76,1,2.33
240,Cockburn Town,21.4612,-71.1419,78.8,73,20,4.61
241,Grand Island,40.925,-98.342,42.8,22,75,33.38
242,Bundaberg,-24.85,152.35,82.4,54,40,5.75
243,Placido De Castro,-10.3353,-67.1856,74.32,95,30,2.86
244,Lebanon,36.2081,-86.2911,52.0,46,1,9.22
245,Siyabuswa,-25.1132,29.0445,72.25,70,34,10.49
246,Zyryanka,65.75,150.85,-26.09,86,100,6.67
247,Baiyin,36.5583,104.2081,28.99,62,0,2.24
248,Great Yarmouth,52.6083,1.7305,39.0,81,75,9.22
249,Nome,64.5011,-165.4064,15.8,79,90,2.84
250,Vila Franca Do Campo,37.7167,-25.4333,61.0,94,40,11.5
251,Airai,-8.9266,125.4092,70.02,93,93,0.69
252,Paso De Carrasco,-34.8603,-56.0522,73.4,60,0,16.11
253,Gardner,42.5751,-71.9981,36.0,100,90,2.73
254,Bethel,41.3712,-73.414,37.99,75,75,2.71
255,Harper,4.375,-7.7169,78.62,85,60,8.75
256,Bandarbeyla,9.4942,50.8122,73.18,77,15,14.67
257,Date,42.4681,140.8681,24.84,87,93,7.85
258,Evensk,61.95,159.2333,-24.5,75,0,8.08
259,Kimbe,-5.5502,150.1429,84.27,67,99,2.48
260,Neiafu,-18.65,-173.9833,84.2,79,40,11.5
261,Bacolod,10.6667,122.95,79.65,83,40,9.46
262,Erzin,36.9559,36.2,48.99,80,61,10.0
263,Kununurra,-15.7667,128.7333,82.4,83,88,5.75
264,San Quintin,30.4833,-115.95,68.85,35,0,6.17
265,Bilibino,68.0546,166.4372,-22.43,83,99,0.65
266,Karratha,-20.7377,116.8463,97.02,34,34,7.7
267,Birin,26.8865,88.0718,44.1,74,2,3.47
268,Kostomuksha,64.571,30.5767,-11.4,88,3,3.76
269,Te Anau,-45.4167,167.7167,74.12,42,25,3.6
270,Bubaque,11.2833,-15.8333,78.01,64,12,11.05
271,Cherskiy,68.75,161.3,-25.71,84,87,5.19
272,Maneadero,31.7167,-116.5667,69.01,69,0,1.01
273,Tazovskiy,67.4667,78.7,-16.33,89,100,11.3
274,Narsaq,60.9167,-46.05,21.2,68,75,9.22
275,Wajir,1.7471,40.0573,75.7,71,25,14.14
276,Hirson,49.9226,4.0826,33.01,98,100,8.99
277,Luderitz,-26.6481,15.1594,64.29,85,27,5.46
278,Falam,22.9167,93.6833,47.7,93,99,0.72
279,Trabzon,40.9167,39.8333,48.2,76,75,17.27
280,Muroto,33.2833,134.15,42.8,87,75,9.22
281,Kavaratti,10.5669,72.642,82.4,72,96,7.74
282,Areosa,41.7178,-8.8571,50.0,100,28,4.45
283,Luanda,-8.8368,13.2343,77.0,83,20,5.75
284,Najran,17.4924,44.1277,53.6,35,0,0.94
285,Bandar-E Lengeh,26.5579,54.8807,62.67,53,64,4.07
286,Dalbandin,28.8947,64.4101,43.79,44,0,5.55
287,Yulara,-25.2406,130.9889,86.0,26,40,19.57
288,Yumen,40.2833,97.2,18.52,89,97,15.19
289,Xai-Xai,-25.0519,33.6442,76.21,92,12,4.54
290,Toora-Khem,52.4675,96.11,-10.3,87,100,0.56
291,Gloversville,43.0528,-74.3438,33.01,100,90,1.9
292,Iqaluit,63.7506,-68.5145,-13.0,77,20,5.75
293,Mitu,1.1983,-70.1733,73.22,97,100,1.66
294,Santa Cruz,-17.8,-63.1667,78.8,88,75,6.91
295,Nirmal,19.1,78.35,62.82,41,0,3.02
296,Izobilnyy,45.3741,41.7121,30.2,100,90,11.18
297,Cavalcante,-13.7975,-47.4583,70.41,86,100,2.51
298,Lianzhou,24.7811,112.3825,51.17,44,0,0.34
299,Talnakh,69.4865,88.3972,-41.75,79,26,0.6
300,Mahibadhoo,3.7833,72.9667,80.69,76,84,10.09
301,Boston,42.3584,-71.0598,37.99,93,90,6.91
302,Santa Marta,11.2408,-74.199,84.0,65,79,13.02
303,Shimoda,34.6667,138.95,50.0,71,40,17.27
304,Korla,41.7597,86.1469,17.78,84,0,9.73
305,Clyde River,70.4692,-68.5914,-13.0,84,1,5.75
306,Tulsipur,28.131,82.2973,49.69,77,3,3.67
307,Marawi,7.9986,124.2928,77.0,93,65,4.0
308,Longyearbyen,78.2186,15.6401,23.0,86,75,6.91
309,Yelizovo,53.1873,158.3805,1.4,71,99,4.47
310,Amarante Do Maranhao,-5.5667,-46.7422,73.09,96,100,3.18
311,Gordeyevka,52.9569,31.9703,7.45,94,94,8.19
312,Saint-Augustin,51.226,-58.6502,26.51,96,100,4.18
313,Cuamba,-14.8031,36.5372,70.72,94,100,1.23
314,Poum,-20.2333,164.0167,79.52,86,97,12.03
315,Qaqortoq,60.7167,-46.0333,21.2,68,75,9.22
316,Hirara,24.8,125.2833,66.2,82,75,8.05
317,Bambanglipuro,-7.95,110.2833,78.08,74,100,3.15
318,Sorland,67.667,12.6934,39.13,72,100,10.92
319,Wad Rawah,15.1603,33.1397,68.31,27,15,12.91
320,Saint-Joseph,-21.3667,55.6167,78.8,78,40,7.92
321,Green River,41.5286,-109.4662,30.2,29,1,21.85
322,Fort Payne,34.4442,-85.7197,51.8,49,1,3.44
323,Sao Joao Da Barra,-21.6403,-41.0511,76.15,88,0,13.09
324,Acari,-15.4311,-74.6158,72.84,66,84,5.79
325,Helong,42.5397,128.9972,13.03,91,100,1.3
326,Black Diamond,47.3087,-122.0032,52.0,100,17,5.99
327,Lagos,6.5833,3.75,82.4,83,20,3.44
328,Eureka,40.8021,-124.1637,64.0,83,20,5.01
329,Stykkisholmur,65.0757,-22.7297,35.92,84,71,15.1
330,Seoul,37.5683,126.9778,41.0,60,75,6.91
331,Sao Filipe,14.8961,-24.4956,72.93,71,100,11.18
332,Mayumba,-3.432,10.6554,76.89,85,43,4.63
333,Namatanai,-3.6667,152.4333,85.23,65,100,3.91
334,Colomi,-17.35,-65.8667,62.6,82,75,6.91
335,Rocha,-34.4833,-54.3333,61.54,71,0,8.57
336,Aitape,-3.1374,142.3475,82.38,78,100,4.05
337,Breves,-1.6822,-50.4803,75.25,95,54,4.0
338,Ordu,40.9086,37.6845,46.4,76,75,12.66
339,Kandri,21.4167,79.2667,53.6,62,0,2.3
340,Acapulco,16.8634,-99.8901,82.4,74,90,8.05
341,Higueron,18.5833,-99.1667,82.0,36,75,5.75
342,Igarka,67.4667,86.5833,-39.66,80,2,5.53
343,Warrnambool,-38.3833,142.4833,57.99,69,58,11.99
344,Novopokrovka,49.8425,36.5477,26.6,86,75,4.47
345,Rio Gallegos,-51.6226,-69.2181,64.4,45,40,11.5
346,Buraydah,26.326,43.975,60.8,63,40,6.91
347,Altay,47.8667,88.1167,-10.3,68,0,2.28
348,Antalaha,-14.9003,50.2788,76.8,90,69,2.64
349,Piacabucu,-10.4056,-36.4344,79.0,78,86,13.22
350,West Bay,19.3667,-81.4167,80.6,83,20,5.75
351,Nuuk,64.1835,-51.7216,23.0,86,75,6.91
352,Tuatapere,-46.1333,167.6833,73.0,64,9,3.0
353,San Patricio,28.017,-97.5169,77.0,22,1,11.5
354,Timmins,48.4669,-81.3331,28.4,86,90,5.75
355,Asasa,7.1,39.2,53.78,53,50,1.52
356,Navoi,40.0844,65.3792,39.2,60,0,9.22
357,Alghero,40.5589,8.3181,55.4,67,40,10.36
358,Avera,33.194,-82.5271,51.8,54,1,5.75
359,Shingu,33.7333,135.9833,42.8,70,20,2.3
360,Pangnirtung,66.1451,-65.7125,-11.2,77,1,3.44
361,Hasaki,35.7333,140.8333,41.0,75,75,4.61
362,Quartucciu,39.2519,9.1794,55.4,76,40,12.66
363,Gat,31.61,34.7642,57.0,100,18,3.0
364,Fare,-16.7,-151.0167,81.59,75,28,14.47
365,Boca Do Acre,-8.7522,-67.3978,73.06,98,98,2.39
366,Venice,27.0998,-82.4543,62.01,72,1,5.75
367,Aykhal,66.0,111.5,-26.45,83,100,12.84
368,Kenai,60.5544,-151.2583,34.0,64,75,25.32
369,Puerto Escondido,15.85,-97.0667,80.6,69,40,4.61
370,Poceirao,38.831,-8.7937,53.01,93,75,9.22
371,High Prairie,55.4334,-116.4858,24.8,63,12,6.91
372,Majene,-3.5403,118.9707,79.2,87,100,5.35
373,Gigmoto,13.7796,124.39,80.06,84,35,8.46
374,Menongue,-14.6585,17.691,63.93,87,100,3.91
375,Katsuura,35.1333,140.3,46.99,76,75,9.22
376,Harlingen,26.1906,-97.6961,80.6,24,1,6.91
377,Manavgat,36.7867,31.4431,50.0,57,0,13.8
378,Ixtapa,20.7,-105.2,73.4,83,20,10.36
379,Drayton Valley,53.2168,-114.9854,27.0,61,0,5.01
380,Hokitika,-42.7167,170.9667,66.6,79,84,9.22
381,Moron,-34.6534,-58.6198,77.0,67,0,8.99
382,Rosaryville,38.7568,-76.8097,45.0,56,1,5.75
383,Bulaevo,54.9056,70.4439,-15.81,84,58,8.79
384,Cidreira,-30.1811,-50.2056,71.92,74,41,19.35
385,Lata,40.1629,-8.3327,53.01,90,77,3.2
386,Yerbogachen,61.2767,108.0108,-22.83,81,100,10.09
387,Sao Felix Do Xingu,-6.6447,-51.995,73.65,94,100,1.32
388,Matagami,49.7502,-77.6328,24.8,100,90,2.3
389,Qasigiannguit,68.8193,-51.1922,19.4,86,90,5.75
390,Atambua,-9.1061,124.8925,80.89,78,95,0.22
391,Ciudad Ojeda,10.1964,-71.3082,80.53,67,97,7.29
392,Isangel,-19.55,169.2667,78.8,94,90,5.75
393,Kitimat,54.0524,-128.6534,33.01,97,99,4.45
394,Pringsewu,-5.3582,104.9744,73.72,92,97,2.01
395,Kirksville,40.1948,-92.5833,37.4,75,90,21.85
396,Ponta Delgada,37.7333,-25.6667,61.0,94,40,11.5
397,Port Hardy,50.6996,-127.4199,48.2,66,75,31.07
398,Muros,42.7762,-9.0603,51.01,89,47,4.7
399,Ahuimanu,21.4447,-157.8378,82.4,73,1,10.36
400,Mount Isa,-20.7333,139.5,89.6,31,35,8.05
401,Ambilobe,-13.2,49.05,75.87,94,67,0.94
402,Port Blair,11.6667,92.75,77.04,81,59,11.07
403,Spring Hill,28.4769,-82.5255,55.4,67,1,4.61
404,North Bend,43.4065,-124.2243,60.01,67,90,11.5
405,Turukhansk,65.8167,87.9833,-41.3,81,17,3.02
406,Kushiro,42.975,144.3747,10.4,72,20,4.61
407,Yarada,17.65,83.2667,69.8,100,20,2.3
408,Erenhot,43.6475,111.9767,-9.89,85,22,7.11
409,The Valley,18.217,-63.0578,78.8,73,40,6.91
410,Caravelas,-17.7125,-39.2481,76.96,84,0,5.79
411,Santa Cecilia,-26.9608,-50.4269,61.63,94,96,7.72
412,Grand-Santi,4.25,-54.3833,72.5,97,88,2.77
413,Hami,42.8,93.45,13.19,81,1,7.83
414,Thompson,55.7435,-97.8558,26.6,93,90,12.66
415,Codrington,-38.2667,141.9667,57.96,61,48,24.54
416,Ahipara,-35.1667,173.1667,73.09,57,1,7.2
417,Breytovo,58.2993,37.8617,-3.32,92,100,9.53
418,San Vicente,-26.6167,-54.1333,73.35,78,8,5.48
419,Kallithea,37.95,23.7,55.0,71,75,10.85
420,Aklavik,68.2191,-135.0107,-4.0,77,77,2.3
421,Slupca,52.2873,17.8719,22.23,98,42,6.24
422,Pine Bluff,34.2284,-92.0032,55.4,47,20,8.05
423,Ostrovnoy,68.0531,39.5131,-0.06,93,61,20.42
424,Hun,29.1268,15.9477,49.66,58,0,3.06
425,Zinacantan,16.75,-92.7,78.8,53,75,9.22
426,Kilifi,-3.6305,39.8499,75.13,87,5,4.83
427,Nhulunbuy,-12.2333,136.7667,80.6,89,75,5.75
428,Cruzeiro Do Sul,-29.5128,-51.9853,68.0,78,0,5.28
429,Idenao,4.2475,9.0047,75.2,83,20,6.91
430,Padang,-0.9492,100.3543,76.98,72,77,4.14
431,Guangyuan,32.442,105.823,32.0,59,0,3.58
432,Mandera,3.9366,41.867,74.64,64,6,10.54
433,Inhambane,-23.865,35.3833,79.48,86,1,7.02
434,Rocky Mountain House,52.3668,-114.9188,30.2,43,0,3.44
435,Xinyu,27.8043,114.9334,47.82,52,0,1.3
436,Nalut,30.3333,10.85,44.98,56,0,5.44
437,Matamoros,25.5333,-103.25,71.6,13,1,2.39
438,Nagato,34.3833,131.2,44.6,93,75,6.91
439,Marsabit,2.3284,37.9899,67.21,61,0,7.23
440,Tamandare,-8.7597,-35.1047,78.26,79,20,9.33
441,Saint-Georges,12.0564,-61.7485,80.6,78,20,17.27
442,Lincoln,40.8,-96.667,41.0,41,100,10.0
443,Abha,18.2164,42.5053,48.2,87,0,3.31
444,Lompoc,34.6391,-120.4579,73.4,40,1,17.27
445,Biltine,14.5333,20.9167,67.46,25,19,14.92
446,Trinidad,-14.8333,-64.9,82.4,83,75,5.75
447,Fort Nelson,58.8053,-122.7002,14.0,85,75,3.2
448,Port Augusta,-32.5,137.7667,68.0,49,40,14.97
449,Okrika,4.7416,7.0849,78.31,83,0,6.04
450,Hit,33.6416,42.8251,54.05,70,65,7.76
451,Nanning,22.8167,108.3167,42.8,100,9,1.68
452,Bathsheba,13.2167,-59.5167,78.8,78,20,17.27
453,Moose Factory,51.2585,-80.6094,23.0,93,90,4.61
454,Brigantine,39.4101,-74.3646,41.0,75,1,6.13
455,Dondo,-19.6094,34.7431,80.6,94,75,2.3
456,Staropyshminsk,56.9387,60.903,-4.0,77,0,15.66
457,Havoysund,70.9963,24.6622,35.6,80,75,9.22
458,Aswan,24.0934,32.907,53.1,49,22,9.31
459,Rudbar,30.15,62.6,43.65,44,0,2.51
460,Luangwa,-15.6167,30.4167,73.33,94,100,1.1
461,Oksfjord,70.2396,22.3479,35.6,86,75,3.44
462,Adrar,20.5022,-10.0711,60.55,27,93,13.11
463,Ngunguru,-35.6167,174.5,80.01,55,2,3.0
464,Phuket,8.0,98.25,82.0,83,20,4.61
465,Komsomolskiy,40.4272,71.7189,30.2,74,0,4.61
466,Camana,-16.6228,-72.7111,70.99,74,96,4.68
467,Maceio,-9.6658,-35.7353,77.0,83,0,8.05
468,Terrace,54.5163,-128.6035,32.0,100,90,3.44
469,Petropavlovskoye,52.0712,84.107,-19.82,84,2,1.95
470,Killybegs,54.6333,-8.45,37.0,97,61,3.87
471,Bogorodskoye,56.55,37.8833,-4.4,92,100,5.17
472,Kalabo,-14.97,22.6814,67.55,94,100,5.03
473,Lang Suan,9.9456,99.0785,73.4,88,20,5.75
474,Aden,12.7794,45.0367,74.7,65,0,13.65
475,Lyubech,51.7026,30.6569,13.86,96,99,10.38
476,Alwar,27.5667,76.6,49.46,46,15,0.6
477,Ivanava,52.1451,25.5365,13.19,96,100,10.29
478,Quatre Cocos,-20.2078,57.7625,77.0,94,40,1.14
479,Belyy Yar,53.6039,91.3903,-0.4,60,0,11.18
480,Alofi,-19.0595,-169.9187,86.0,74,75,10.36
481,Fairbanks,64.8378,-147.7164,9.0,84,40,4.7
482,Colares,38.7992,-9.4469,54.0,93,94,15.01
483,Palmas Bellas,9.2319,-80.0867,81.0,80,69,10.0
484,Mnogovershinnyy,53.9353,139.9242,-17.27,86,12,4.36
485,Le Vauclin,14.5452,-60.8388,77.0,88,20,6.91
486,Flin Flon,54.7682,-101.865,26.6,93,90,21.85
487,Palembang,-2.9167,104.7458,75.2,94,20,0.74
488,Alyangula,-13.8483,136.4192,86.0,84,83,5.75
489,Ginir,7.1333,40.7,57.0,45,0,3.78
490,Ayan,56.45,138.1667,-15.72,77,0,6.13
491,Bastrop,32.7562,-91.8724,60.8,47,1,8.05
492,Nanortalik,60.1432,-45.2371,23.09,93,97,4.36
493,Ladnun,27.65,74.3833,54.82,37,62,2.55
494,Chicama,-7.8447,-79.1469,72.93,73,100,7.9
495,Nouadhibou,20.931,-17.0347,64.4,34,0,14.97
496,Smithers,54.7804,-127.1743,32.0,74,90,10.36
497,Merauke,-8.4667,140.3333,82.31,80,100,10.78
498,Batagay-Alyta,67.8006,130.4114,-36.42,71,66,1.1
499,Shieli,44.1667,66.75,25.7,86,0,10.63
500,Metro,-5.1131,105.3067,74.1,94,98,5.3
501,Abbeville,50.1,1.8333,35.01,81,100,12.59
502,Polunochnoye,60.8697,60.4153,-4.02,92,100,7.09
503,Comodoro Rivadavia,-45.8667,-67.5,77.0,33,0,6.91
504,Kristiinankaupunki,62.2743,21.376,7.43,92,10,7.36
505,Tautira,-17.7333,-149.15,87.8,58,75,5.75
506,Novyy Urgal,51.0736,132.5642,-19.82,86,96,1.77
507,Aasiaat,68.7098,-52.8699,15.13,97,100,5.5
508,Soe,-9.8607,124.284,75.09,88,96,1.83
509,Manzanillo,20.3433,-77.1167,74.43,78,94,4.45
510,Nouakchott,18.0858,-15.9785,69.8,11,0,11.5
511,Kingston Upon Hull,53.7446,-0.3353,36.0,93,75,4.61
512,Bambous Virieux,-20.3428,57.7575,77.0,94,40,1.14
513,Baykit,61.67,96.37,-23.69,78,11,4.0
514,Paamiut,61.994,-49.6678,22.44,89,90,10.45
515,Spornoye,50.8448,37.2913,24.8,93,90,6.71
516,Balykshi,47.0667,51.8667,35.6,60,40,11.18
517,Saint-Francois,46.4154,3.9054,46.4,87,90,12.66
518,Port Washington,40.8257,-73.6982,44.6,61,75,5.75
519,Banjar,-8.19,114.9675,78.8,89,75,5.75
520,Taseyevo,57.2169,94.8978,-3.3,89,100,13.58
521,Cayenne,4.9333,-52.3333,75.2,100,75,5.75
522,Tungawan,7.5081,122.3711,80.46,84,100,6.26
523,Mount Gambier,-37.8333,140.7667,57.2,62,75,21.85
524,Mirnyy,62.5353,113.9611,-10.19,90,100,5.91
525,Galle,6.0367,80.217,75.88,86,98,4.41
526,Arkhangelsk,64.5401,40.5433,-31.0,75,0,2.19
527,Idlib,35.9306,36.6339,48.2,100,40,9.22
528,Otake,34.2,132.2167,39.2,81,40,6.91
529,Villacarrillo,38.1156,-3.0848,33.69,85,83,4.65
530,Nantucket,41.2835,-70.0995,43.0,93,20,4.61
531,Okhotsk,59.3833,143.3,-17.3,76,48,9.53
532,Nogliki,51.8333,143.1667,-10.46,85,82,10.33
533,Baijiantan,45.6333,85.1833,1.04,92,100,7.0
534,Bowen,-20.0167,148.2333,80.6,65,79,12.66
535,Veraval,20.9,70.3667,67.5,42,1,8.81
536,Tutoia,-2.7619,-42.2744,79.99,80,93,14.34
537,Santander,43.4647,-3.8044,52.0,93,90,4.61
538,Kieta,-6.2167,155.6333,85.68,62,83,2.75
539,Jardim,-21.4803,-56.1381,77.34,84,99,3.83
540,Sakakah,29.9697,40.2064,51.8,58,0,8.05
541,Puerto Cabezas,14.0351,-83.3888,82.4,89,75,6.91
542,Riyadh,24.6877,46.7219,55.4,33,0,7.94
543,Les Cayes,18.2,-73.75,75.29,82,81,3.8
544,Mount Pleasant,32.7941,-79.8626,52.0,76,1,4.61
545,Del Rio,29.3627,-100.8968,69.8,23,1,12.66
546,Keningau,5.3378,116.1602,75.2,94,20,2.3
547,Mogadishu,2.0371,45.3438,76.48,83,6,19.3
548,Praia,14.9215,-23.5087,71.6,73,75,18.41
549,San Marco In Lamis,41.7131,15.6399,44.6,87,75,3.44
550,Bayan,46.0833,127.4,-2.0,89,100,4.68
551,Lagoa,39.05,-27.9833,62.01,88,94,25.46
552,Travesia,15.8667,-87.9,80.6,74,75,10.36
553,Vilyuysk,63.7553,121.6247,-28.01,84,100,8.16
554,Asau,46.4333,26.4,26.01,93,90,2.3
555,Viisoara,46.55,23.9167,30.0,100,90,4.61
556,Bongouanou,6.6486,-4.1992,73.9,86,1,2.91
557,Gamba,-2.65,10.0,74.32,91,60,4.29
558,Manadhoo,5.7667,73.3833,81.19,76,59,6.55
559,Sherlovaya Gora,50.5667,116.25,-21.21,89,0,3.31
560,Grajau,-5.8194,-46.1386,74.66,94,100,3.11
561,Curvelo,-18.7564,-44.4308,70.38,86,31,2.48
562,Penzance,50.1186,-5.5371,45.0,87,40,8.05
563,Sisimiut,66.9395,-53.6735,10.49,92,94,5.03
564,Lao Cai,22.4833,103.95,52.59,73,15,1.03
565,Suraabad,40.8192,49.4687,44.6,87,75,9.22
566,Punta De Bombon,-17.1717,-71.7931,70.41,74,94,4.25
567,Mezhdurechensk,53.6942,88.0603,-10.16,88,100,2.06
568,Marsh Harbour,26.5412,-77.0636,70.92,79,100,10.29
569,Cairns,-16.9167,145.7667,84.99,69,100,19.57
570,Sistranda,63.7256,8.834,19.4,93,20,11.5
571,Chilca,-12.5211,-76.7372,69.8,78,0,9.22
572,Ngama,11.7833,17.1667,69.96,22,7,8.72
573,Kaseda,31.4167,130.3167,41.0,75,20,2.3
574,Iquitos,-3.7481,-73.2472,75.2,94,90,8.05
575,Voloshka,61.3314,40.0858,-10.71,89,100,5.14
576,Manta,-0.95,-80.7333,84.2,61,40,11.5
577,Nelson Bay,-32.7167,152.15,75.99,73,90,9.22
578,Khorixas,-20.3667,14.9667,62.46,75,99,7.92
579,Iracoubo,5.4802,-53.2011,76.8,88,96,12.53
580,Mildura,-34.2,142.15,64.99,48,78,10.36
581,Macamic,48.7502,-78.9996,30.2,93,90,3.44
582,Mantua,45.1667,10.7833,39.0,79,91,7.0
583,Santa Rosa,14.3122,121.1114,78.8,83,75,1.14
584,Bhadra,29.1167,75.1667,53.11,41,100,4.56
585,Nizamabad,18.6667,78.1167,63.77,42,1,3.96
586,Yuanping,38.7153,112.7575,22.95,74,52,9.51
587,Tigil,57.8,158.6667,-6.18,90,53,1.01
588,Edson,53.5835,-116.4356,28.4,59,75,2.75
589,Portobelo,9.55,-79.65,81.0,99,78,8.34
590,Gafanha Da Encarnacao,40.6181,-8.733,41.0,87,48,5.35
591,Edd,13.9297,41.6925,75.52,41,0,14.07
592,Henties Bay,-22.116,14.2845,71.01,81,99,5.53
593,Pereira Barreto,-20.6383,-51.1092,74.26,90,100,6.62
594,Bratsk,56.1325,101.6142,5.0,78,75,22.37
595,Lasa,46.6166,10.7002,35.01,93,90,5.75
596,Chebsara,59.2002,38.8356,-7.01,91,99,7.65
597,Teodoro Sampaio,-22.5325,-52.1675,74.25,90,65,8.19
598,Boffa,10.1667,-14.0333,72.07,87,13,1.23
599,Bairiki,1.3292,172.9752,84.2,70,40,11.5
600,Minab,27.1467,57.0801,48.2,71,0,2.3
601,Vestmannaeyjar,63.4427,-20.2734,43.95,74,96,16.35
602,Xam Nua,20.4197,104.0439,47.82,91,29,1.34
603,Leon,21.1167,-101.6667,69.8,28,75,6.91
604,Nemuro,43.3236,145.575,23.18,87,14,23.76
605,Krasnoborsk,61.5598,45.934,-2.49,92,100,3.44
606,Kurilsk,45.2333,147.8833,18.68,94,98,28.92
607,Berlevag,70.8578,29.0864,32.97,92,100,10.13
608,Darovskoy,58.77,47.9564,9.95,96,100,5.79
609,Vardo,70.3705,31.1107,26.6,86,40,11.5
610,Cam Ranh,11.9214,109.1591,66.2,77,20,6.91
611,Faxinal,-24.0003,-51.3194,67.06,99,14,6.38
612,Oeiras,-7.0253,-42.1311,75.54,88,92,1.25
613,New Smyrna Beach,29.0258,-80.927,53.6,66,20,4.61
614,Arlit,18.7369,7.3853,68.02,24,0,7.58
615,Kargil,34.5667,76.1,-6.16,55,62,1.57
616,Vygonichi,53.0985,34.0673,6.51,95,86,4.94
617,Sept-Iles,50.2001,-66.3821,28.4,86,83,3.44
618,Koshurnikovo,54.1667,93.3,-7.02,92,100,3.18
619,Norrtalje,59.758,18.705,26.01,80,100,17.0
620,Mongoumba,3.6415,18.5936,70.34,37,28,3.47
621,Halifax,44.6453,-63.5724,37.4,100,90,1.57
622,Johnstown,40.3267,-78.922,39.2,48,1,2.26
623,Ust-Maya,60.4167,134.5333,-48.87,76,80,1.48
624,College,64.8569,-147.8028,9.0,77,75,4.61
625,Katghora,22.5,82.55,47.01,49,0,6.82
626,Luganville,-15.5333,167.1667,88.14,66,89,7.56
627,Imbituba,-28.24,-48.6703,69.8,94,90,8.05
628,Akranes,64.3218,-22.0749,37.99,81,75,10.36
629,Lilongwe,-13.9669,33.7873,69.31,85,100,1.34
630,Evansville,37.9748,-87.5558,51.8,54,90,14.97
631,Vytegra,61.0064,36.4481,-8.81,90,98,5.06
632,Liverpool,53.4106,-2.9779,34.0,100,100,4.61
633,Mehamn,71.0357,27.8492,31.89,97,100,4.43
634,Poronaysk,49.2167,143.1167,-1.89,85,44,5.64
635,Palau,7.503,134.621,80.6,89,75,6.91
636,Sorong,-0.8833,131.25,81.97,77,100,5.59
637,Acarau,-2.8856,-40.12,78.84,80,45,13.49
638,Klaksvik,62.2266,-6.589,35.6,100,75,2.3
639,Tabou,4.423,-7.3528,78.49,85,66,7.63
640,Vestmanna,62.1564,-7.1664,35.6,100,75,2.3
641,Binabalian,16.4202,119.9279,78.87,77,83,6.82
642,Guerrero Negro,27.9769,-114.0611,71.96,21,0,11.56
643,San Juan,-31.5375,-68.5364,86.36,40,0,18.72
644,Yanam,16.7333,82.2167,67.08,96,6,2.48
645,Benin,9.5,2.25,69.75,21,6,4.36
646,Ivrea,45.4672,7.8762,42.01,65,40,6.91
647,Ridgecrest,35.6225,-117.6709,73.4,16,20,2.64
648,Krasnoselkup,65.7,82.4667,-19.16,84,99,5.23
649,Preobrazheniye,42.9019,133.9064,18.18,81,100,7.14
650,Montepuez,-13.1256,38.9997,70.03,99,93,3.62
651,Castro-Urdiales,43.3829,-3.2204,50.0,100,40,1.14
652,Kagoro,9.6,8.3833,66.85,23,19,6.11
653,Awjilah,29.1081,21.2869,52.12,85,0,5.82
654,Rosbach,50.8,7.6167,28.99,78,100,5.68
655,Chota,-6.55,-78.65,57.24,88,97,2.71
656,Ballina,-28.8667,153.5667,82.4,65,0,8.05
657,Dingle,10.9995,122.6711,78.31,87,20,7.54
658,Beyneu,45.3167,55.2,38.08,69,99,17.83
659,Hambantota,6.1241,81.1185,76.6,85,100,6.29
660,Zhigansk,66.7697,123.3711,-42.66,79,12,2.68
661,Ternate,0.8,127.4,82.4,74,100,5.39
662,Grindavik,63.8424,-22.4338,35.6,87,20,13.8
663,Abnub,27.2696,31.1511,51.8,71,0,10.36
664,Khandyga,62.6667,135.6,-49.97,76,56,1.66
665,Callaguip,18.0714,120.4867,71.6,83,40,3.44
666,Samana,19.2056,-69.3369,80.6,83,40,6.91
667,Izvoarele,45.0333,25.2667,21.99,91,54,4.85
668,Alta Floresta,-9.8756,-56.0861,77.0,94,90,1.14
669,Bemidji,47.4736,-94.8803,34.0,100,90,6.91
670,Birzai,56.2,24.75,8.6,95,92,7.05
671,Miranda,3.2499,-76.2281,69.8,94,40,2.3
672,Garden City,42.3256,-83.331,39.99,70,90,5.75
673,Malamig,12.95,121.3667,74.73,87,90,7.87
674,Trat,12.5,102.5,70.0,63,100,3.13
675,Buchanan,5.8808,-10.0467,75.2,94,75,7.58
676,Hammerfest,70.6634,23.6821,35.6,80,75,9.22
677,Berbera,10.4396,45.0143,72.34,76,4,6.51
678,Riberalta,-10.9833,-66.1,78.8,83,75,2.71
679,Labuhan,-6.8844,112.2051,78.64,82,100,10.33
680,Porto Torres,40.835,8.3972,55.4,67,40,10.36
681,Serenje,-13.2325,30.2352,63.93,97,100,3.51
682,Boa Vista,2.8197,-60.6733,82.4,65,40,6.91
683,Carutapera,-1.195,-46.02,78.62,80,67,8.43
684,Srinivaspur,13.3333,78.2167,64.4,100,40,2.3
685,Almeirim,-1.5233,-52.5817,79.52,73,83,7.25
686,Channel-Port Aux Basques,47.5702,-59.1367,32.14,93,100,6.58
687,Luwuk,-0.9516,122.7875,83.25,70,100,1.16
688,Coquimbo,-29.9533,-71.3436,62.6,72,0,11.5
689,Taguatinga,-12.3857,-46.5711,74.34,82,100,4.92
690,Charyshskoye,51.3978,83.5598,-9.96,81,0,2.77
691,Son Tay,21.1378,105.505,55.4,94,20,3.44
692,Cabatuan,10.8794,122.486,78.58,83,52,10.94
693,Portland,45.5234,-122.6762,55.0,47,75,8.05
694,Farap,39.1704,63.6116,35.6,87,0,9.22
695,Kyrksaeterora,63.2906,9.0891,24.8,93,20,11.5
696,Pacasmayo,-7.4006,-79.5714,72.05,76,73,14.05
697,Esperanza,19.5847,-70.9849,75.0,81,43,2.48
698,Maloy,61.9353,5.1136,32.0,64,90,9.22
699,Torrington,41.8007,-73.1212,35.01,89,92,3.94
700,Severnyy,50.677,36.5532,24.8,93,90,6.71
701,Port-Gentil,-0.7193,8.7815,78.8,94,40,2.3
702,Kabinda,-6.1333,24.4833,65.3,98,100,1.48
703,Saint-Pierre,-21.3393,55.4781,78.8,78,40,6.15
